header: 
  seq: 2758
  stamp: 
    secs: 1519256658
    nsecs: 964240074
  frame_id: "xsens_link"
orientation: 
  x: -0.00105124374386
  y: 0.0012405741727
  z: 0.00281063164584
  w: 0.999994814396
orientation_covariance: [0.01, 0.0, 0.0, 0.0, 0.01, 0.0, 0.0, 0.0, 0.01]
angular_velocity: 
  x: -0.0220417995006
  y: -0.0172752887011
  z: 0.0084524974227
angular_velocity_covariance: [0.01, 0.0, 0.0, 0.0, 0.01, 0.0, 0.0, 0.0, 0.01]
linear_acceleration: 
  x: 0.0175920967013
  y: 0.0439200215042
  z: -9.83825302124
linear_acceleration_covariance: [0.01, 0.0, 0.0, 0.0, 0.01, 0.0, 0.0, 0.0, 0.01]
---
header: 
  seq: 2759
  stamp: 
    secs: 1519256658
    nsecs: 984034061
  frame_id: "xsens_link"
orientation: 
  x: -0.00104660214856
  y: 0.00122565194033
  z: 0.00281809596345
  w: 0.999994814396
orientation_covariance: [0.01, 0.0, 0.0, 0.0, 0.01, 0.0, 0.0, 0.0, 0.01]
angular_velocity: 
  x: -0.0244081001729
  y: -0.0182006470859
  z: 0.00995565298945
angular_velocity_covariance: [0.01, 0.0, 0.0, 0.0, 0.01, 0.0, 0.0, 0.0, 0.01]
linear_acceleration: 
  x: 0.0395226478577
  y: 0.0301314461976
  z: -9.81421470642
linear_acceleration_covariance: [0.01, 0.0, 0.0, 0.0, 0.01, 0.0, 0.0, 0.0, 0.01]
---
header: 
  seq: 2760
  stamp: 
    secs: 1519256658
    nsecs: 994270086
  frame_id: "xsens_link"
orientation: 
  x: -0.00105267134495
  y: 0.00123914307915
  z: 0.00283631891944
  w: 0.999994635582
orientation_covariance: [0.01, 0.0, 0.0, 0.0, 0.01, 0.0, 0.0, 0.0, 0.01]
angular_velocity: 
  x: -0.0243164561689
  y: -0.017664950341
  z: 0.00769030349329
angular_velocity_covariance: [0.01, 0.0, 0.0, 0.0, 0.01, 0.0, 0.0, 0.0, 0.01]
linear_acceleration: 
  x: 0.036090541631
  y: 0.0315108895302
  z: -9.83244609833
linear_acceleration_covariance: [0.01, 0.0, 0.0, 0.0, 0.01, 0.0, 0.0, 0.0, 0.01]
---
header: 
  seq: 2761
  stamp: 
    secs: 1519256659
    nsecs:  12634992
  frame_id: "xsens_link"
orientation: 
  x: -0.00106188829523
  y: 0.00121927913278
  z: 0.00282747484744
  w: 0.999994754791
orientation_covariance: [0.01, 0.0, 0.0, 0.0, 0.01, 0.0, 0.0, 0.0, 0.01]
angular_velocity: 
  x: -0.0238027460873
  y: -0.0166580099612
  z: 0.00865515507758
angular_velocity_covariance: [0.01, 0.0, 0.0, 0.0, 0.01, 0.0, 0.0, 0.0, 0.01]
linear_acceleration: 
  x: 0.0352915562689
  y: 0.0141164725646
  z: -9.81298351288
linear_acceleration_covariance: [0.01, 0.0, 0.0, 0.0, 0.01, 0.0, 0.0, 0.0, 0.01]
---
header: 
  seq: 2762
  stamp: 
    secs: 1519256659
    nsecs:  36082029
  frame_id: "xsens_link"
orientation: 
  x: -0.00105928932317
  y: 0.00123840512242
  z: 0.00287285028026
  w: 0.999994575977
orientation_covariance: [0.01, 0.0, 0.0, 0.0, 0.01, 0.0, 0.0, 0.0, 0.01]
angular_velocity: 
  x: -0.024667756632
  y: -0.0158350914717
  z: 0.0100618228316
angular_velocity_covariance: [0.01, 0.0, 0.0, 0.0, 0.01, 0.0, 0.0, 0.0, 0.01]
linear_acceleration: 
  x: 0.0202785134315
  y: 0.0359587520361
  z: -9.83994102478
linear_acceleration_covariance: [0.01, 0.0, 0.0, 0.0, 0.01, 0.0, 0.0, 0.0, 0.01]
---
header: 
  seq: 2763
  stamp: 
    secs: 1519256659
    nsecs:  53956031
  frame_id: "xsens_link"
orientation: 
  x: -0.00107253796887
  y: 0.00122265913524
  z: 0.00290772388689
  w: 0.999994456768
orientation_covariance: [0.01, 0.0, 0.0, 0.0, 0.01, 0.0, 0.0, 0.0, 0.01]
angular_velocity: 
  x: -0.0230234134942
  y: -0.0178806483746
  z: 0.00875014904886
angular_velocity_covariance: [0.01, 0.0, 0.0, 0.0, 0.01, 0.0, 0.0, 0.0, 0.01]
linear_acceleration: 
  x: 0.00917937979102
  y: 0.0304591432214
  z: -9.84661769867
linear_acceleration_covariance: [0.01, 0.0, 0.0, 0.0, 0.01, 0.0, 0.0, 0.0, 0.01]
---
header: 
  seq: 2764
  stamp: 
    secs: 1519256659
    nsecs:  72592973
  frame_id: "xsens_link"
orientation: 
  x: -0.00105689372867
  y: 0.0012107049115
  z: 0.00288908998482
  w: 0.999994575977
orientation_covariance: [0.01, 0.0, 0.0, 0.0, 0.01, 0.0, 0.0, 0.0, 0.01]
angular_velocity: 
  x: -0.0232350099832
  y: -0.0160790998489
  z: 0.00894051045179
angular_velocity_covariance: [0.01, 0.0, 0.0, 0.0, 0.01, 0.0, 0.0, 0.0, 0.01]
linear_acceleration: 
  x: 0.0189582165331
  y: 0.0318846181035
  z: -9.81604003906
linear_acceleration_covariance: [0.01, 0.0, 0.0, 0.0, 0.01, 0.0, 0.0, 0.0, 0.01]
---
header: 
  seq: 2765
  stamp: 
    secs: 1519256659
    nsecs:  97871065
  frame_id: "xsens_link"
orientation: 
  x: -0.00105773215182
  y: 0.00120489415713
  z: 0.00287770410068
  w: 0.999994695187
orientation_covariance: [0.01, 0.0, 0.0, 0.0, 0.01, 0.0, 0.0, 0.0, 0.01]
angular_velocity: 
  x: -0.0216923616827
  y: -0.0167202223092
  z: 0.0094523653388
angular_velocity_covariance: [0.01, 0.0, 0.0, 0.0, 0.01, 0.0, 0.0, 0.0, 0.01]
linear_acceleration: 
  x: 0.023927891627
  y: 0.0378839857876
  z: -9.84427547455
linear_acceleration_covariance: [0.01, 0.0, 0.0, 0.0, 0.01, 0.0, 0.0, 0.0, 0.01]
---
header: 
  seq: 2766
  stamp: 
    secs: 1519256659
    nsecs: 112792015
  frame_id: "xsens_link"
orientation: 
  x: -0.00103425525595
  y: 0.00122869375627
  z: 0.00287347193807
  w: 0.999994635582
orientation_covariance: [0.01, 0.0, 0.0, 0.0, 0.01, 0.0, 0.0, 0.0, 0.01]
angular_velocity: 
  x: -0.0219699013978
  y: -0.0159151852131
  z: 0.00866818986833
angular_velocity_covariance: [0.01, 0.0, 0.0, 0.0, 0.01, 0.0, 0.0, 0.0, 0.01]
linear_acceleration: 
  x: 0.0293121840805
  y: 0.015734732151
  z: -9.82890892029
linear_acceleration_covariance: [0.01, 0.0, 0.0, 0.0, 0.01, 0.0, 0.0, 0.0, 0.01]
---
header: 
  seq: 2767
  stamp: 
    secs: 1519256659
    nsecs: 144705057
  frame_id: "xsens_link"
orientation: 
  x: -0.0010398827726
  y: 0.00119562598411
  z: 0.00288238795474
  w: 0.999994695187
orientation_covariance: [0.01, 0.0, 0.0, 0.0, 0.01, 0.0, 0.0, 0.0, 0.01]
angular_velocity: 
  x: -0.0232346318662
  y: -0.0182211417705
  z: 0.0094847753644
angular_velocity_covariance: [0.01, 0.0, 0.0, 0.0, 0.01, 0.0, 0.0, 0.0, 0.01]
linear_acceleration: 
  x: 0.0299169681966
  y: 0.0227343644947
  z: -9.81711864471
linear_acceleration_covariance: [0.01, 0.0, 0.0, 0.0, 0.01, 0.0, 0.0, 0.0, 0.01]
---
header: 
  seq: 2768
  stamp: 
    secs: 1519256659
    nsecs: 152641057
  frame_id: "xsens_link"
orientation: 
  x: -0.00104324216954
  y: 0.00119719898794
  z: 0.00288916821592
  w: 0.999994575977
orientation_covariance: [0.01, 0.0, 0.0, 0.0, 0.01, 0.0, 0.0, 0.0, 0.01]
angular_velocity: 
  x: -0.0228222496808
  y: -0.0159591436386
  z: 0.00835228990763
angular_velocity_covariance: [0.01, 0.0, 0.0, 0.0, 0.01, 0.0, 0.0, 0.0, 0.01]
linear_acceleration: 
  x: 0.013024722226
  y: 0.0222925320268
  z: -9.82673549652
linear_acceleration_covariance: [0.01, 0.0, 0.0, 0.0, 0.01, 0.0, 0.0, 0.0, 0.01]
---
header: 
  seq: 2769
  stamp: 
    secs: 1519256659
    nsecs: 172691106
  frame_id: "xsens_link"
orientation: 
  x: -0.00102894974407
  y: 0.00120102858637
  z: 0.00290758861229
  w: 0.999994575977
orientation_covariance: [0.01, 0.0, 0.0, 0.0, 0.01, 0.0, 0.0, 0.0, 0.01]
angular_velocity: 
  x: -0.0219278037548
  y: -0.0172145683318
  z: 0.0076761469245
angular_velocity_covariance: [0.01, 0.0, 0.0, 0.0, 0.01, 0.0, 0.0, 0.0, 0.01]
linear_acceleration: 
  x: 0.0128591079265
  y: 0.0221098400652
  z: -9.82888221741
linear_acceleration_covariance: [0.01, 0.0, 0.0, 0.0, 0.01, 0.0, 0.0, 0.0, 0.01]
---
header: 
  seq: 2770
  stamp: 
    secs: 1519256659
    nsecs: 192621946
  frame_id: "xsens_link"
orientation: 
  x: -0.00103257619776
  y: 0.00119287113193
  z: 0.00290449662134
  w: 0.999994575977
orientation_covariance: [0.01, 0.0, 0.0, 0.0, 0.01, 0.0, 0.0, 0.0, 0.01]
angular_velocity: 
  x: -0.0228487011045
  y: -0.0166513025761
  z: 0.00727307144552
angular_velocity_covariance: [0.01, 0.0, 0.0, 0.0, 0.01, 0.0, 0.0, 0.0, 0.01]
linear_acceleration: 
  x: 0.0243219193071
  y: 0.0239234231412
  z: -9.83444404602
linear_acceleration_covariance: [0.01, 0.0, 0.0, 0.0, 0.01, 0.0, 0.0, 0.0, 0.01]
---
header: 
  seq: 2771
  stamp: 
    secs: 1519256659
    nsecs: 212869882
  frame_id: "xsens_link"
orientation: 
  x: -0.00102907791734
  y: 0.00118405197281
  z: 0.00293296319433
  w: 0.999994516373
orientation_covariance: [0.01, 0.0, 0.0, 0.0, 0.01, 0.0, 0.0, 0.0, 0.01]
angular_velocity: 
  x: -0.0239361077547
  y: -0.0152822593227
  z: 0.00807885080576
angular_velocity_covariance: [0.01, 0.0, 0.0, 0.0, 0.01, 0.0, 0.0, 0.0, 0.01]
linear_acceleration: 
  x: 0.0405230410397
  y: 0.0244536120445
  z: -9.81605148315
linear_acceleration_covariance: [0.01, 0.0, 0.0, 0.0, 0.01, 0.0, 0.0, 0.0, 0.01]
---
header: 
  seq: 2772
  stamp: 
    secs: 1519256659
    nsecs: 232811927
  frame_id: "xsens_link"
orientation: 
  x: -0.00103588181082
  y: 0.00119583855849
  z: 0.00290745915845
  w: 0.999994575977
orientation_covariance: [0.01, 0.0, 0.0, 0.0, 0.01, 0.0, 0.0, 0.0, 0.01]
angular_velocity: 
  x: -0.0247288513929
  y: -0.0177789498121
  z: 0.00798311084509
angular_velocity_covariance: [0.01, 0.0, 0.0, 0.0, 0.01, 0.0, 0.0, 0.0, 0.01]
linear_acceleration: 
  x: 0.0258400142193
  y: 0.0156707819551
  z: -9.82156562805
linear_acceleration_covariance: [0.01, 0.0, 0.0, 0.0, 0.01, 0.0, 0.0, 0.0, 0.01]
---
header: 
  seq: 2773
  stamp: 
    secs: 1519256659
    nsecs: 253026008
  frame_id: "xsens_link"
orientation: 
  x: -0.00101907097269
  y: 0.00119783752598
  z: 0.00293901888654
  w: 0.999994516373
orientation_covariance: [0.01, 0.0, 0.0, 0.0, 0.01, 0.0, 0.0, 0.0, 0.01]
angular_velocity: 
  x: -0.0239245593548
  y: -0.0153474519029
  z: 0.00915694981813
angular_velocity_covariance: [0.01, 0.0, 0.0, 0.0, 0.01, 0.0, 0.0, 0.0, 0.01]
linear_acceleration: 
  x: 0.0242495276034
  y: 0.0154598597437
  z: -9.81890010834
linear_acceleration_covariance: [0.01, 0.0, 0.0, 0.0, 0.01, 0.0, 0.0, 0.0, 0.01]
---
header: 
  seq: 2774
  stamp: 
    secs: 1519256659
    nsecs: 272990942
  frame_id: "xsens_link"
orientation: 
  x: -0.00102749257348
  y: 0.00120105082169
  z: 0.00293110730127
  w: 0.999994456768
orientation_covariance: [0.01, 0.0, 0.0, 0.0, 0.01, 0.0, 0.0, 0.0, 0.01]
angular_velocity: 
  x: -0.0230632685125
  y: -0.0164259243757
  z: 0.00887643638998
angular_velocity_covariance: [0.01, 0.0, 0.0, 0.0, 0.01, 0.0, 0.0, 0.0, 0.01]
linear_acceleration: 
  x: 0.0265252944082
  y: 0.0492442585528
  z: -9.85227775574
linear_acceleration_covariance: [0.01, 0.0, 0.0, 0.0, 0.01, 0.0, 0.0, 0.0, 0.01]
---
header: 
  seq: 2775
  stamp: 
    secs: 1519256659
    nsecs: 292614936
  frame_id: "xsens_link"
orientation: 
  x: -0.00101833150256
  y: 0.00121856282931
  z: 0.00295275449753
  w: 0.999994397163
orientation_covariance: [0.01, 0.0, 0.0, 0.0, 0.01, 0.0, 0.0, 0.0, 0.01]
angular_velocity: 
  x: -0.0223625469953
  y: -0.0161364674568
  z: 0.00658985273913
angular_velocity_covariance: [0.01, 0.0, 0.0, 0.0, 0.01, 0.0, 0.0, 0.0, 0.01]
linear_acceleration: 
  x: 0.019354108721
  y: 0.0306949131191
  z: -9.8345785141
linear_acceleration_covariance: [0.01, 0.0, 0.0, 0.0, 0.01, 0.0, 0.0, 0.0, 0.01]
---
header: 
  seq: 2776
  stamp: 
    secs: 1519256659
    nsecs: 314515113
  frame_id: "xsens_link"
orientation: 
  x: -0.00102545483969
  y: 0.00119465612806
  z: 0.00298133282922
  w: 0.999994397163
orientation_covariance: [0.01, 0.0, 0.0, 0.0, 0.01, 0.0, 0.0, 0.0, 0.01]
angular_velocity: 
  x: -0.0240903366357
  y: -0.0169970113784
  z: 0.00780392438173
angular_velocity_covariance: [0.01, 0.0, 0.0, 0.0, 0.01, 0.0, 0.0, 0.0, 0.01]
linear_acceleration: 
  x: 0.0210250075907
  y: 0.0217817183584
  z: -9.81401729584
linear_acceleration_covariance: [0.01, 0.0, 0.0, 0.0, 0.01, 0.0, 0.0, 0.0, 0.01]
---
header: 
  seq: 2777
  stamp: 
    secs: 1519256659
    nsecs: 332741022
  frame_id: "xsens_link"
orientation: 
  x: -0.00102897465695
  y: 0.00121909368318
  z: 0.00298359780572
  w: 0.999994337559
orientation_covariance: [0.01, 0.0, 0.0, 0.0, 0.01, 0.0, 0.0, 0.0, 0.01]
angular_velocity: 
  x: -0.0239495206624
  y: -0.015119465068
  z: 0.00783968809992
angular_velocity_covariance: [0.01, 0.0, 0.0, 0.0, 0.01, 0.0, 0.0, 0.0, 0.01]
linear_acceleration: 
  x: 0.0174408163875
  y: 0.0195528995246
  z: -9.82242679596
linear_acceleration_covariance: [0.01, 0.0, 0.0, 0.0, 0.01, 0.0, 0.0, 0.0, 0.01]
---
header: 
  seq: 2778
  stamp: 
    secs: 1519256659
    nsecs: 356298923
  frame_id: "xsens_link"
orientation: 
  x: -0.00101749238092
  y: 0.0012160083279
  z: 0.00299054919742
  w: 0.999994397163
orientation_covariance: [0.01, 0.0, 0.0, 0.0, 0.01, 0.0, 0.0, 0.0, 0.01]
angular_velocity: 
  x: -0.0234082359821
  y: -0.0168107450008
  z: 0.00923108309507
angular_velocity_covariance: [0.01, 0.0, 0.0, 0.0, 0.01, 0.0, 0.0, 0.0, 0.01]
linear_acceleration: 
  x: 0.0111892465502
  y: 0.0321856364608
  z: -9.82977867126
linear_acceleration_covariance: [0.01, 0.0, 0.0, 0.0, 0.01, 0.0, 0.0, 0.0, 0.01]
---
header: 
  seq: 2779
  stamp: 
    secs: 1519256659
    nsecs: 372745990
  frame_id: "xsens_link"
orientation: 
  x: -0.00103602535091
  y: 0.00122955313418
  z: 0.00298459152691
  w: 0.999994277954
orientation_covariance: [0.01, 0.0, 0.0, 0.0, 0.01, 0.0, 0.0, 0.0, 0.01]
angular_velocity: 
  x: -0.0231001544744
  y: -0.0158559530973
  z: 0.00959802512079
angular_velocity_covariance: [0.01, 0.0, 0.0, 0.0, 0.01, 0.0, 0.0, 0.0, 0.01]
linear_acceleration: 
  x: 0.0256839729846
  y: 0.0172383543104
  z: -9.81901359558
linear_acceleration_covariance: [0.01, 0.0, 0.0, 0.0, 0.01, 0.0, 0.0, 0.0, 0.01]
---
header: 
  seq: 2780
  stamp: 
    secs: 1519256659
    nsecs: 392724990
  frame_id: "xsens_link"
orientation: 
  x: -0.00103091995697
  y: 0.00122369383462
  z: 0.00299504795112
  w: 0.999994218349
orientation_covariance: [0.01, 0.0, 0.0, 0.0, 0.01, 0.0, 0.0, 0.0, 0.01]
angular_velocity: 
  x: -0.0238724071532
  y: -0.0179000217468
  z: 0.00857505947351
angular_velocity_covariance: [0.01, 0.0, 0.0, 0.0, 0.01, 0.0, 0.0, 0.0, 0.01]
linear_acceleration: 
  x: 0.0249855984002
  y: 0.0295723434538
  z: -9.80713844299
linear_acceleration_covariance: [0.01, 0.0, 0.0, 0.0, 0.01, 0.0, 0.0, 0.0, 0.01]
---
header: 
  seq: 2781
  stamp: 
    secs: 1519256659
    nsecs: 417018890
  frame_id: "xsens_link"
orientation: 
  x: -0.00102603249252
  y: 0.00123694364447
  z: 0.00299287959933
  w: 0.999994218349
orientation_covariance: [0.01, 0.0, 0.0, 0.0, 0.01, 0.0, 0.0, 0.0, 0.01]
angular_velocity: 
  x: -0.0225607305765
  y: -0.0159692037851
  z: 0.00746343284845
angular_velocity_covariance: [0.01, 0.0, 0.0, 0.0, 0.01, 0.0, 0.0, 0.0, 0.01]
linear_acceleration: 
  x: 0.0174934267998
  y: 0.0350717119873
  z: -9.83565044403
linear_acceleration_covariance: [0.01, 0.0, 0.0, 0.0, 0.01, 0.0, 0.0, 0.0, 0.01]
---
header: 
  seq: 2782
  stamp: 
    secs: 1519256659
    nsecs: 432967901
  frame_id: "xsens_link"
orientation: 
  x: -0.00103931769263
  y: 0.00122470373753
  z: 0.00297992583364
  w: 0.999994277954
orientation_covariance: [0.01, 0.0, 0.0, 0.0, 0.01, 0.0, 0.0, 0.0, 0.01]
angular_velocity: 
  x: -0.0238750167191
  y: -0.0184707362205
  z: 0.00859070662409
angular_velocity_covariance: [0.01, 0.0, 0.0, 0.0, 0.01, 0.0, 0.0, 0.0, 0.01]
linear_acceleration: 
  x: 0.00788620207459
  y: 0.0354847274721
  z: -9.82322120667
linear_acceleration_covariance: [0.01, 0.0, 0.0, 0.0, 0.01, 0.0, 0.0, 0.0, 0.01]
---
header: 
  seq: 2783
  stamp: 
    secs: 1519256659
    nsecs: 456624031
  frame_id: "xsens_link"
orientation: 
  x: -0.00103934411891
  y: 0.00121868844144
  z: 0.00300228805281
  w: 0.999994218349
orientation_covariance: [0.01, 0.0, 0.0, 0.0, 0.01, 0.0, 0.0, 0.0, 0.01]
angular_velocity: 
  x: -0.0231631118804
  y: -0.0154349952936
  z: 0.00808574352413
angular_velocity_covariance: [0.01, 0.0, 0.0, 0.0, 0.01, 0.0, 0.0, 0.0, 0.01]
linear_acceleration: 
  x: 0.0104648005217
  y: 0.0236626155674
  z: -9.83190822601
linear_acceleration_covariance: [0.01, 0.0, 0.0, 0.0, 0.01, 0.0, 0.0, 0.0, 0.01]
---
header: 
  seq: 2784
  stamp: 
    secs: 1519256659
    nsecs: 472718000
  frame_id: "xsens_link"
orientation: 
  x: -0.00102620502003
  y: 0.00123282184359
  z: 0.00299630849622
  w: 0.999994277954
orientation_covariance: [0.01, 0.0, 0.0, 0.0, 0.01, 0.0, 0.0, 0.0, 0.01]
angular_velocity: 
  x: -0.0233311243355
  y: -0.0157650560141
  z: 0.00888873171061
angular_velocity_covariance: [0.01, 0.0, 0.0, 0.0, 0.01, 0.0, 0.0, 0.0, 0.01]
linear_acceleration: 
  x: 0.0319289490581
  y: 0.0277621317655
  z: -9.81527519226
linear_acceleration_covariance: [0.01, 0.0, 0.0, 0.0, 0.01, 0.0, 0.0, 0.0, 0.01]
---
header: 
  seq: 2785
  stamp: 
    secs: 1519256659
    nsecs: 493222951
  frame_id: "xsens_link"
orientation: 
  x: -0.00102181325201
  y: 0.00122797838412
  z: 0.00301538500935
  w: 0.999994158745
orientation_covariance: [0.01, 0.0, 0.0, 0.0, 0.01, 0.0, 0.0, 0.0, 0.01]
angular_velocity: 
  x: -0.0223349779844
  y: -0.0172976423055
  z: 0.00915732234716
angular_velocity_covariance: [0.01, 0.0, 0.0, 0.0, 0.01, 0.0, 0.0, 0.0, 0.01]
linear_acceleration: 
  x: 0.0204506125301
  y: 0.0223579090089
  z: -9.83035469055
linear_acceleration_covariance: [0.01, 0.0, 0.0, 0.0, 0.01, 0.0, 0.0, 0.0, 0.01]
---
header: 
  seq: 2786
  stamp: 
    secs: 1519256659
    nsecs: 513185977
  frame_id: "xsens_link"
orientation: 
  x: -0.00101440108847
  y: 0.00122388242744
  z: 0.00302524352446
  w: 0.999994158745
orientation_covariance: [0.01, 0.0, 0.0, 0.0, 0.01, 0.0, 0.0, 0.0, 0.01]
angular_velocity: 
  x: -0.0231042467058
  y: -0.0166535396129
  z: 0.00815223995596
angular_velocity_covariance: [0.01, 0.0, 0.0, 0.0, 0.01, 0.0, 0.0, 0.0, 0.01]
linear_acceleration: 
  x: 0.0190983377397
  y: 0.0272281263024
  z: -9.81343078613
linear_acceleration_covariance: [0.01, 0.0, 0.0, 0.0, 0.01, 0.0, 0.0, 0.0, 0.01]
---
header: 
  seq: 2787
  stamp: 
    secs: 1519256659
    nsecs: 532736063
  frame_id: "xsens_link"
orientation: 
  x: -0.00101107556839
  y: 0.00123933202121
  z: 0.00303293881007
  w: 0.999994158745
orientation_covariance: [0.01, 0.0, 0.0, 0.0, 0.01, 0.0, 0.0, 0.0, 0.01]
angular_velocity: 
  x: -0.0237736850977
  y: -0.0164400804788
  z: 0.00834483653307
angular_velocity_covariance: [0.01, 0.0, 0.0, 0.0, 0.01, 0.0, 0.0, 0.0, 0.01]
linear_acceleration: 
  x: 0.0325987935066
  y: 0.041621889919
  z: -9.83966827393
linear_acceleration_covariance: [0.01, 0.0, 0.0, 0.0, 0.01, 0.0, 0.0, 0.0, 0.01]
---
header: 
  seq: 2788
  stamp: 
    secs: 1519256659
    nsecs: 554703950
  frame_id: "xsens_link"
orientation: 
  x: -0.00101166404784
  y: 0.00122664344963
  z: 0.00303517677821
  w: 0.999994218349
orientation_covariance: [0.01, 0.0, 0.0, 0.0, 0.01, 0.0, 0.0, 0.0, 0.01]
angular_velocity: 
  x: -0.0227827597409
  y: -0.0152807710692
  z: 0.00917818397284
angular_velocity_covariance: [0.01, 0.0, 0.0, 0.0, 0.01, 0.0, 0.0, 0.0, 0.01]
linear_acceleration: 
  x: 0.0268868673593
  y: 0.0333531983197
  z: -9.81509971619
linear_acceleration_covariance: [0.01, 0.0, 0.0, 0.0, 0.01, 0.0, 0.0, 0.0, 0.01]
---
header: 
  seq: 2789
  stamp: 
    secs: 1519256659
    nsecs: 573724985
  frame_id: "xsens_link"
orientation: 
  x: -0.00100826495327
  y: 0.00123018596787
  z: 0.00302390521392
  w: 0.999994158745
orientation_covariance: [0.01, 0.0, 0.0, 0.0, 0.01, 0.0, 0.0, 0.0, 0.01]
angular_velocity: 
  x: -0.0239379741251
  y: -0.0178981591016
  z: 0.00758897513151
angular_velocity_covariance: [0.01, 0.0, 0.0, 0.0, 0.01, 0.0, 0.0, 0.0, 0.01]
linear_acceleration: 
  x: 0.0232736375183
  y: 0.0258571263403
  z: -9.8456363678
linear_acceleration_covariance: [0.01, 0.0, 0.0, 0.0, 0.01, 0.0, 0.0, 0.0, 0.01]
---
header: 
  seq: 2790
  stamp: 
    secs: 1519256659
    nsecs: 592736005
  frame_id: "xsens_link"
orientation: 
  x: -0.00101849366911
  y: 0.00122996210121
  z: 0.00302579859272
  w: 0.999994218349
orientation_covariance: [0.01, 0.0, 0.0, 0.0, 0.01, 0.0, 0.0, 0.0, 0.01]
angular_velocity: 
  x: -0.0244088470936
  y: -0.0149853555486
  z: 0.00754054682329
angular_velocity_covariance: [0.01, 0.0, 0.0, 0.0, 0.01, 0.0, 0.0, 0.0, 0.01]
linear_acceleration: 
  x: 0.0175951272249
  y: 0.0378840789199
  z: -9.84404659271
linear_acceleration_covariance: [0.01, 0.0, 0.0, 0.0, 0.01, 0.0, 0.0, 0.0, 0.01]
---
header: 
  seq: 2791
  stamp: 
    secs: 1519256659
    nsecs: 613101005
  frame_id: "xsens_link"
orientation: 
  x: -0.00101746793371
  y: 0.00124104111455
  z: 0.0030316549819
  w: 0.99999409914
orientation_covariance: [0.01, 0.0, 0.0, 0.0, 0.01, 0.0, 0.0, 0.0, 0.01]
angular_velocity: 
  x: -0.023444743827
  y: -0.0173684209585
  z: 0.00734794931486
angular_velocity_covariance: [0.01, 0.0, 0.0, 0.0, 0.01, 0.0, 0.0, 0.0, 0.01]
linear_acceleration: 
  x: 0.0242493860424
  y: 0.0360716991127
  z: -9.81691741943
linear_acceleration_covariance: [0.01, 0.0, 0.0, 0.0, 0.01, 0.0, 0.0, 0.0, 0.01]
---
header: 
  seq: 2792
  stamp: 
    secs: 1519256659
    nsecs: 635231971
  frame_id: "xsens_link"
orientation: 
  x: -0.00100816669874
  y: 0.00122798897792
  z: 0.00300850672647
  w: 0.999994277954
orientation_covariance: [0.01, 0.0, 0.0, 0.0, 0.01, 0.0, 0.0, 0.0, 0.01]
angular_velocity: 
  x: -0.0243004392833
  y: -0.017042087391
  z: 0.00730995088816
angular_velocity_covariance: [0.01, 0.0, 0.0, 0.0, 0.01, 0.0, 0.0, 0.0, 0.01]
linear_acceleration: 
  x: 0.0292108971626
  y: 0.0327095836401
  z: -9.81436729431
linear_acceleration_covariance: [0.01, 0.0, 0.0, 0.0, 0.01, 0.0, 0.0, 0.0, 0.01]
---
header: 
  seq: 2793
  stamp: 
    secs: 1519256659
    nsecs: 656639099
  frame_id: "xsens_link"
orientation: 
  x: -0.00101014680695
  y: 0.00122977537103
  z: 0.00300594232976
  w: 0.999994277954
orientation_covariance: [0.01, 0.0, 0.0, 0.0, 0.01, 0.0, 0.0, 0.0, 0.01]
angular_velocity: 
  x: -0.023290142417
  y: -0.0165186841041
  z: 0.00738073140383
angular_velocity_covariance: [0.01, 0.0, 0.0, 0.0, 0.01, 0.0, 0.0, 0.0, 0.01]
linear_acceleration: 
  x: 0.0260042194277
  y: 0.0323535054922
  z: -9.8363609314
linear_acceleration_covariance: [0.01, 0.0, 0.0, 0.0, 0.01, 0.0, 0.0, 0.0, 0.01]
---
header: 
  seq: 2794
  stamp: 
    secs: 1519256659
    nsecs: 672898054
  frame_id: "xsens_link"
orientation: 
  x: -0.00100125488825
  y: 0.00121495162603
  z: 0.00303068710491
  w: 0.999994218349
orientation_covariance: [0.01, 0.0, 0.0, 0.0, 0.01, 0.0, 0.0, 0.0, 0.01]
angular_velocity: 
  x: -0.0232849288732
  y: -0.0175796449184
  z: 0.00841561704874
angular_velocity_covariance: [0.01, 0.0, 0.0, 0.0, 0.01, 0.0, 0.0, 0.0, 0.01]
linear_acceleration: 
  x: 0.0350774601102
  y: 0.0453059822321
  z: -9.81910419464
linear_acceleration_covariance: [0.01, 0.0, 0.0, 0.0, 0.01, 0.0, 0.0, 0.0, 0.01]
---
header: 
  seq: 2795
  stamp: 
    secs: 1519256659
    nsecs: 693550109
  frame_id: "xsens_link"
orientation: 
  x: -0.00100003718399
  y: 0.00123294128571
  z: 0.00304007926024
  w: 0.999994158745
orientation_covariance: [0.01, 0.0, 0.0, 0.0, 0.01, 0.0, 0.0, 0.0, 0.01]
angular_velocity: 
  x: -0.0241242386401
  y: -0.0163458343595
  z: 0.00808741897345
angular_velocity_covariance: [0.01, 0.0, 0.0, 0.0, 0.01, 0.0, 0.0, 0.0, 0.01]
linear_acceleration: 
  x: 0.000881340820342
  y: 0.0377888530493
  z: -9.83206367493
linear_acceleration_covariance: [0.01, 0.0, 0.0, 0.0, 0.01, 0.0, 0.0, 0.0, 0.01]
---
header: 
  seq: 2796
  stamp: 
    secs: 1519256659
    nsecs: 714972019
  frame_id: "xsens_link"
orientation: 
  x: -0.000999774318188
  y: 0.00120096630417
  z: 0.00303248176351
  w: 0.999994158745
orientation_covariance: [0.01, 0.0, 0.0, 0.0, 0.01, 0.0, 0.0, 0.0, 0.01]
angular_velocity: 
  x: -0.0231355428696
  y: -0.0168573111296
  z: 0.00736024277285
angular_velocity_covariance: [0.01, 0.0, 0.0, 0.0, 0.01, 0.0, 0.0, 0.0, 0.01]
linear_acceleration: 
  x: 0.00332325650379
  y: 0.036515776068
  z: -9.82561588287
linear_acceleration_covariance: [0.01, 0.0, 0.0, 0.0, 0.01, 0.0, 0.0, 0.0, 0.01]
---
header: 
  seq: 2797
  stamp: 
    secs: 1519256659
    nsecs: 733259916
  frame_id: "xsens_link"
orientation: 
  x: -0.00100566912442
  y: 0.00122211885173
  z: 0.00304201082326
  w: 0.999994158745
orientation_covariance: [0.01, 0.0, 0.0, 0.0, 0.01, 0.0, 0.0, 0.0, 0.01]
angular_velocity: 
  x: -0.0235550161451
  y: -0.0159405209124
  z: 0.00963155459613
angular_velocity_covariance: [0.01, 0.0, 0.0, 0.0, 0.01, 0.0, 0.0, 0.0, 0.01]
linear_acceleration: 
  x: 0.0128547484055
  y: 0.0277999490499
  z: -9.82516670227
linear_acceleration_covariance: [0.01, 0.0, 0.0, 0.0, 0.01, 0.0, 0.0, 0.0, 0.01]
---
header: 
  seq: 2798
  stamp: 
    secs: 1519256659
    nsecs: 753089904
  frame_id: "xsens_link"
orientation: 
  x: -0.000992066692561
  y: 0.00122455880046
  z: 0.00305786682293
  w: 0.99999409914
orientation_covariance: [0.01, 0.0, 0.0, 0.0, 0.01, 0.0, 0.0, 0.0, 0.01]
angular_velocity: 
  x: -0.0223722346127
  y: -0.017216058448
  z: 0.00972543191165
angular_velocity_covariance: [0.01, 0.0, 0.0, 0.0, 0.01, 0.0, 0.0, 0.0, 0.01]
linear_acceleration: 
  x: 0.0230489019305
  y: 0.0214567575604
  z: -9.81064414978
linear_acceleration_covariance: [0.01, 0.0, 0.0, 0.0, 0.01, 0.0, 0.0, 0.0, 0.01]
---
header: 
  seq: 2799
  stamp: 
    secs: 1519256659
    nsecs: 772851943
  frame_id: "xsens_link"
orientation: 
  x: -0.000988672720268
  y: 0.00122627196833
  z: 0.00306960195303
  w: 0.99999409914
orientation_covariance: [0.01, 0.0, 0.0, 0.0, 0.01, 0.0, 0.0, 0.0, 0.01]
angular_velocity: 
  x: -0.0236522424966
  y: -0.0162973999977
  z: 0.00739749567583
angular_velocity_covariance: [0.01, 0.0, 0.0, 0.0, 0.01, 0.0, 0.0, 0.0, 0.01]
linear_acceleration: 
  x: 0.0252434164286
  y: 0.0394019782543
  z: -9.85029506683
linear_acceleration_covariance: [0.01, 0.0, 0.0, 0.0, 0.01, 0.0, 0.0, 0.0, 0.01]
---
header: 
  seq: 2800
  stamp: 
    secs: 1519256659
    nsecs: 798959016
  frame_id: "xsens_link"
orientation: 
  x: -0.000987842911854
  y: 0.00122816138901
  z: 0.00307608325966
  w: 0.999994039536
orientation_covariance: [0.01, 0.0, 0.0, 0.0, 0.01, 0.0, 0.0, 0.0, 0.01]
angular_velocity: 
  x: -0.023211909458
  y: -0.016542153433
  z: 0.00810939818621
angular_velocity_covariance: [0.01, 0.0, 0.0, 0.0, 0.01, 0.0, 0.0, 0.0, 0.01]
linear_acceleration: 
  x: 0.0128252515569
  y: 0.0618257075548
  z: -9.80449390411
linear_acceleration_covariance: [0.01, 0.0, 0.0, 0.0, 0.01, 0.0, 0.0, 0.0, 0.01]
---
header: 
  seq: 2801
  stamp: 
    secs: 1519256659
    nsecs: 812969923
  frame_id: "xsens_link"
orientation: 
  x: -0.000988827086985
  y: 0.00122237647884
  z: 0.00305474596098
  w: 0.999994158745
orientation_covariance: [0.01, 0.0, 0.0, 0.0, 0.01, 0.0, 0.0, 0.0, 0.01]
angular_velocity: 
  x: -0.0237409025431
  y: -0.0161662716419
  z: 0.00770110730082
angular_velocity_covariance: [0.01, 0.0, 0.0, 0.0, 0.01, 0.0, 0.0, 0.0, 0.01]
linear_acceleration: 
  x: 0.020704574883
  y: 0.037551458925
  z: -9.8006734848
linear_acceleration_covariance: [0.01, 0.0, 0.0, 0.0, 0.01, 0.0, 0.0, 0.0, 0.01]
---
header: 
  seq: 2802
  stamp: 
    secs: 1519256659
    nsecs: 837975978
  frame_id: "xsens_link"
orientation: 
  x: -0.000997670460492
  y: 0.0012193757575
  z: 0.00304151326418
  w: 0.99999409914
orientation_covariance: [0.01, 0.0, 0.0, 0.0, 0.01, 0.0, 0.0, 0.0, 0.01]
angular_velocity: 
  x: -0.0243865009397
  y: -0.0168658792973
  z: 0.00716019421816
angular_velocity_covariance: [0.01, 0.0, 0.0, 0.0, 0.01, 0.0, 0.0, 0.0, 0.01]
linear_acceleration: 
  x: 0.0236996039748
  y: 0.0116506610066
  z: -9.82435512543
linear_acceleration_covariance: [0.01, 0.0, 0.0, 0.0, 0.01, 0.0, 0.0, 0.0, 0.01]
---
header: 
  seq: 2803
  stamp: 
    secs: 1519256659
    nsecs: 855796098
  frame_id: "xsens_link"
orientation: 
  x: -0.00099475227762
  y: 0.00123738695402
  z: 0.00305419834331
  w: 0.999994039536
orientation_covariance: [0.01, 0.0, 0.0, 0.0, 0.01, 0.0, 0.0, 0.0, 0.01]
angular_velocity: 
  x: -0.0239714980125
  y: -0.0164605695754
  z: 0.00866260379553
angular_velocity_covariance: [0.01, 0.0, 0.0, 0.0, 0.01, 0.0, 0.0, 0.0, 0.01]
linear_acceleration: 
  x: 0.0130203496665
  y: 0.0263412594795
  z: -9.80993175507
linear_acceleration_covariance: [0.01, 0.0, 0.0, 0.0, 0.01, 0.0, 0.0, 0.0, 0.01]
---
header: 
  seq: 2804
  stamp: 
    secs: 1519256659
    nsecs: 872889995
  frame_id: "xsens_link"
orientation: 
  x: -0.000974588852841
  y: 0.0012195489835
  z: 0.0030783447437
  w: 0.999994039536
orientation_covariance: [0.01, 0.0, 0.0, 0.0, 0.01, 0.0, 0.0, 0.0, 0.01]
angular_velocity: 
  x: -0.0235378779471
  y: -0.0165853649378
  z: 0.00932160858065
angular_velocity_covariance: [0.01, 0.0, 0.0, 0.0, 0.01, 0.0, 0.0, 0.0, 0.01]
linear_acceleration: 
  x: 0.0257036853582
  y: 0.0295230150223
  z: -9.81399822235
linear_acceleration_covariance: [0.01, 0.0, 0.0, 0.0, 0.01, 0.0, 0.0, 0.0, 0.01]
---
header: 
  seq: 2805
  stamp: 
    secs: 1519256659
    nsecs: 892843008
  frame_id: "xsens_link"
orientation: 
  x: -0.000985117978416
  y: 0.0012290115701
  z: 0.00308259623125
  w: 0.999994039536
orientation_covariance: [0.01, 0.0, 0.0, 0.0, 0.01, 0.0, 0.0, 0.0, 0.01]
angular_velocity: 
  x: -0.022915750742
  y: -0.016755240038
  z: 0.00876281410456
angular_velocity_covariance: [0.01, 0.0, 0.0, 0.0, 0.01, 0.0, 0.0, 0.0, 0.01]
linear_acceleration: 
  x: 0.0158653482795
  y: 0.0104948570952
  z: -9.83165550232
linear_acceleration_covariance: [0.01, 0.0, 0.0, 0.0, 0.01, 0.0, 0.0, 0.0, 0.01]
---
header: 
  seq: 2806
  stamp: 
    secs: 1519256659
    nsecs: 912997007
  frame_id: "xsens_link"
orientation: 
  x: -0.000993414199911
  y: 0.00121239828877
  z: 0.00307780248113
  w: 0.999994039536
orientation_covariance: [0.01, 0.0, 0.0, 0.0, 0.01, 0.0, 0.0, 0.0, 0.01]
angular_velocity: 
  x: -0.0234469790012
  y: -0.0181335955858
  z: 0.00746417883784
angular_velocity_covariance: [0.01, 0.0, 0.0, 0.0, 0.01, 0.0, 0.0, 0.0, 0.01]
linear_acceleration: 
  x: 0.0244230199605
  y: 0.0264111347497
  z: -9.82193183899
linear_acceleration_covariance: [0.01, 0.0, 0.0, 0.0, 0.01, 0.0, 0.0, 0.0, 0.01]
---
header: 
  seq: 2807
  stamp: 
    secs: 1519256659
    nsecs: 933008909
  frame_id: "xsens_link"
orientation: 
  x: -0.00100396410562
  y: 0.00121845933609
  z: 0.00308167352341
  w: 0.999993979931
orientation_covariance: [0.01, 0.0, 0.0, 0.0, 0.01, 0.0, 0.0, 0.0, 0.01]
angular_velocity: 
  x: -0.0244021452963
  y: -0.0164330024272
  z: 0.00738967303187
angular_velocity_covariance: [0.01, 0.0, 0.0, 0.0, 0.01, 0.0, 0.0, 0.0, 0.01]
linear_acceleration: 
  x: 0.018605388701
  y: 0.0359990783036
  z: -9.7919883728
linear_acceleration_covariance: [0.01, 0.0, 0.0, 0.0, 0.01, 0.0, 0.0, 0.0, 0.01]
---
header: 
  seq: 2808
  stamp: 
    secs: 1519256659
    nsecs: 956463098
  frame_id: "xsens_link"
orientation: 
  x: -0.000989960040897
  y: 0.00120688963216
  z: 0.00308067677543
  w: 0.99999409914
orientation_covariance: [0.01, 0.0, 0.0, 0.0, 0.01, 0.0, 0.0, 0.0, 0.01]
angular_velocity: 
  x: -0.0232376158237
  y: -0.0175978951156
  z: 0.0072585423477
angular_velocity_covariance: [0.01, 0.0, 0.0, 0.0, 0.01, 0.0, 0.0, 0.0, 0.01]
linear_acceleration: 
  x: 0.0288504585624
  y: 0.0352366156876
  z: -9.82615089417
linear_acceleration_covariance: [0.01, 0.0, 0.0, 0.0, 0.01, 0.0, 0.0, 0.0, 0.01]
---
header: 
  seq: 2809
  stamp: 
    secs: 1519256659
    nsecs: 973820924
  frame_id: "xsens_link"
orientation: 
  x: -0.000995284179226
  y: 0.00122026400641
  z: 0.00305793713778
  w: 0.99999409914
orientation_covariance: [0.01, 0.0, 0.0, 0.0, 0.01, 0.0, 0.0, 0.0, 0.01]
angular_velocity: 
  x: -0.0244047548622
  y: -0.0153612364084
  z: 0.00686925044283
angular_velocity_covariance: [0.01, 0.0, 0.0, 0.0, 0.01, 0.0, 0.0, 0.0, 0.01]
linear_acceleration: 
  x: 0.0148908728734
  y: 0.0255427733064
  z: -9.85596466064
linear_acceleration_covariance: [0.01, 0.0, 0.0, 0.0, 0.01, 0.0, 0.0, 0.0, 0.01]
---
header: 
  seq: 2810
  stamp: 
    secs: 1519256660
    nsecs:   4648923
  frame_id: "xsens_link"
orientation: 
  x: -0.000987065723166
  y: 0.00121121387929
  z: 0.00308223278262
  w: 0.99999409914
orientation_covariance: [0.01, 0.0, 0.0, 0.0, 0.01, 0.0, 0.0, 0.0, 0.01]
angular_velocity: 
  x: -0.0232167560607
  y: -0.0172134488821
  z: 0.00928286463022
angular_velocity_covariance: [0.01, 0.0, 0.0, 0.0, 0.01, 0.0, 0.0, 0.0, 0.01]
linear_acceleration: 
  x: -0.000727531092707
  y: 0.0425377264619
  z: -9.82376003265
linear_acceleration_covariance: [0.01, 0.0, 0.0, 0.0, 0.01, 0.0, 0.0, 0.0, 0.01]
---
header: 
  seq: 2811
  stamp: 
    secs: 1519256660
    nsecs:  14219999
  frame_id: "xsens_link"
orientation: 
  x: -0.000983248930424
  y: 0.0012100355234
  z: 0.00309428316541
  w: 0.999994039536
orientation_covariance: [0.01, 0.0, 0.0, 0.0, 0.01, 0.0, 0.0, 0.0, 0.01]
angular_velocity: 
  x: -0.024825707078
  y: -0.0163793545216
  z: 0.010049527511
angular_velocity_covariance: [0.01, 0.0, 0.0, 0.0, 0.01, 0.0, 0.0, 0.0, 0.01]
linear_acceleration: 
  x: 0.0274442657828
  y: 0.0394978299737
  z: -9.79846858978
linear_acceleration_covariance: [0.01, 0.0, 0.0, 0.0, 0.01, 0.0, 0.0, 0.0, 0.01]
---
header: 
  seq: 2812
  stamp: 
    secs: 1519256660
    nsecs:  37026882
  frame_id: "xsens_link"
orientation: 
  x: -0.000983022851869
  y: 0.00121036823839
  z: 0.00309674465097
  w: 0.999994039536
orientation_covariance: [0.01, 0.0, 0.0, 0.0, 0.01, 0.0, 0.0, 0.0, 0.01]
angular_velocity: 
  x: -0.0230241585523
  y: -0.0170029718429
  z: 0.00811237841845
angular_velocity_covariance: [0.01, 0.0, 0.0, 0.0, 0.01, 0.0, 0.0, 0.0, 0.01]
linear_acceleration: 
  x: 0.0135881304741
  y: 0.0275721475482
  z: -9.83830356598
linear_acceleration_covariance: [0.01, 0.0, 0.0, 0.0, 0.01, 0.0, 0.0, 0.0, 0.01]
---
header: 
  seq: 2813
  stamp: 
    secs: 1519256660
    nsecs:  57055950
  frame_id: "xsens_link"
orientation: 
  x: -0.000970138760749
  y: 0.00120573607273
  z: 0.0030878065154
  w: 0.999994039536
orientation_covariance: [0.01, 0.0, 0.0, 0.0, 0.01, 0.0, 0.0, 0.0, 0.01]
angular_velocity: 
  x: -0.0231001526117
  y: -0.0166799854487
  z: 0.00934023410082
angular_velocity_covariance: [0.01, 0.0, 0.0, 0.0, 0.01, 0.0, 0.0, 0.0, 0.01]
linear_acceleration: 
  x: 0.0268308334053
  y: 0.0392055176198
  z: -9.8315372467
linear_acceleration_covariance: [0.01, 0.0, 0.0, 0.0, 0.01, 0.0, 0.0, 0.0, 0.01]
---
header: 
  seq: 2814
  stamp: 
    secs: 1519256660
    nsecs:  72899103
  frame_id: "xsens_link"
orientation: 
  x: -0.000967149098869
  y: 0.00121949287131
  z: 0.00311826565303
  w: 0.999993920326
orientation_covariance: [0.01, 0.0, 0.0, 0.0, 0.01, 0.0, 0.0, 0.0, 0.01]
angular_velocity: 
  x: -0.0241883099079
  y: -0.0169523078948
  z: 0.00768285291269
angular_velocity_covariance: [0.01, 0.0, 0.0, 0.0, 0.01, 0.0, 0.0, 0.0, 0.01]
linear_acceleration: 
  x: 0.0517924427986
  y: 0.0341711938381
  z: -9.84823226929
linear_acceleration_covariance: [0.01, 0.0, 0.0, 0.0, 0.01, 0.0, 0.0, 0.0, 0.01]
---
header: 
  seq: 2815
  stamp: 
    secs: 1519256660
    nsecs:  96869945
  frame_id: "xsens_link"
orientation: 
  x: -0.000992630724795
  y: 0.00120027258527
  z: 0.00312217720784
  w: 0.999993979931
orientation_covariance: [0.01, 0.0, 0.0, 0.0, 0.01, 0.0, 0.0, 0.0, 0.01]
angular_velocity: 
  x: -0.023540109396
  y: -0.0163462031633
  z: 0.00907462090254
angular_velocity_covariance: [0.01, 0.0, 0.0, 0.0, 0.01, 0.0, 0.0, 0.0, 0.01]
linear_acceleration: 
  x: 0.04122447595
  y: 0.0404843613505
  z: -9.81896877289
linear_acceleration_covariance: [0.01, 0.0, 0.0, 0.0, 0.01, 0.0, 0.0, 0.0, 0.01]
---
header: 
  seq: 2816
  stamp: 
    secs: 1519256660
    nsecs: 112991094
  frame_id: "xsens_link"
orientation: 
  x: -0.000979252392426
  y: 0.00121272960678
  z: 0.00310725881718
  w: 0.99999409914
orientation_covariance: [0.01, 0.0, 0.0, 0.0, 0.01, 0.0, 0.0, 0.0, 0.01]
angular_velocity: 
  x: -0.0242885202169
  y: -0.0155113637447
  z: 0.0092161828652
angular_velocity_covariance: [0.01, 0.0, 0.0, 0.0, 0.01, 0.0, 0.0, 0.0, 0.01]
linear_acceleration: 
  x: 0.0105036459863
  y: 0.0186514742672
  z: -9.80069351196
linear_acceleration_covariance: [0.01, 0.0, 0.0, 0.0, 0.01, 0.0, 0.0, 0.0, 0.01]
---
header: 
  seq: 2817
  stamp: 
    secs: 1519256660
    nsecs: 133116960
  frame_id: "xsens_link"
orientation: 
  x: -0.000993235735223
  y: 0.00121657375712
  z: 0.00311060110107
  w: 0.999993979931
orientation_covariance: [0.01, 0.0, 0.0, 0.0, 0.01, 0.0, 0.0, 0.0, 0.01]
angular_velocity: 
  x: -0.02268329449
  y: -0.0146713126451
  z: 0.00953916553408
angular_velocity_covariance: [0.01, 0.0, 0.0, 0.0, 0.01, 0.0, 0.0, 0.0, 0.01]
linear_acceleration: 
  x: 0.0194992274046
  y: 0.0295273959637
  z: -9.83276081085
linear_acceleration_covariance: [0.01, 0.0, 0.0, 0.0, 0.01, 0.0, 0.0, 0.0, 0.01]
---
header: 
  seq: 2818
  stamp: 
    secs: 1519256660
    nsecs: 152978897
  frame_id: "xsens_link"
orientation: 
  x: -0.00099047110416
  y: 0.00123208784498
  z: 0.00312765082344
  w: 0.999993920326
orientation_covariance: [0.01, 0.0, 0.0, 0.0, 0.01, 0.0, 0.0, 0.0, 0.01]
angular_velocity: 
  x: -0.0239897537977
  y: -0.0149622559547
  z: 0.00913124345243
angular_velocity_covariance: [0.01, 0.0, 0.0, 0.0, 0.01, 0.0, 0.0, 0.0, 0.01]
linear_acceleration: 
  x: 0.0232433956116
  y: 0.023455940187
  z: -9.82955551147
linear_acceleration_covariance: [0.01, 0.0, 0.0, 0.0, 0.01, 0.0, 0.0, 0.0, 0.01]
---
header: 
  seq: 2819
  stamp: 
    secs: 1519256660
    nsecs: 174232006
  frame_id: "xsens_link"
orientation: 
  x: -0.000982795492746
  y: 0.00122148729861
  z: 0.0031266156584
  w: 0.999993979931
orientation_covariance: [0.01, 0.0, 0.0, 0.0, 0.01, 0.0, 0.0, 0.0, 0.01]
angular_velocity: 
  x: -0.022791326046
  y: -0.0167749840766
  z: 0.00944938510656
angular_velocity_covariance: [0.01, 0.0, 0.0, 0.0, 0.01, 0.0, 0.0, 0.0, 0.01]
linear_acceleration: 
  x: 0.0259983446449
  y: 0.0447081029415
  z: -9.83851623535
linear_acceleration_covariance: [0.01, 0.0, 0.0, 0.0, 0.01, 0.0, 0.0, 0.0, 0.01]
---
header: 
  seq: 2820
  stamp: 
    secs: 1519256660
    nsecs: 192950010
  frame_id: "xsens_link"
orientation: 
  x: -0.00097643234767
  y: 0.00122165831272
  z: 0.00312038743868
  w: 0.999993979931
orientation_covariance: [0.01, 0.0, 0.0, 0.0, 0.01, 0.0, 0.0, 0.0, 0.01]
angular_velocity: 
  x: -0.0223547238857
  y: -0.0178992766887
  z: 0.00743065029383
angular_velocity_covariance: [0.01, 0.0, 0.0, 0.0, 0.01, 0.0, 0.0, 0.0, 0.01]
linear_acceleration: 
  x: 0.0165043100715
  y: 0.0226473510265
  z: -9.83366203308
linear_acceleration_covariance: [0.01, 0.0, 0.0, 0.0, 0.01, 0.0, 0.0, 0.0, 0.01]
---
header: 
  seq: 2821
  stamp: 
    secs: 1519256660
    nsecs: 213769912
  frame_id: "xsens_link"
orientation: 
  x: -0.000981208402663
  y: 0.00121791777201
  z: 0.00309475394897
  w: 0.999994039536
orientation_covariance: [0.01, 0.0, 0.0, 0.0, 0.01, 0.0, 0.0, 0.0, 0.01]
angular_velocity: 
  x: -0.0236831568182
  y: -0.0173386167735
  z: 0.0090947356075
angular_velocity_covariance: [0.01, 0.0, 0.0, 0.0, 0.01, 0.0, 0.0, 0.0, 0.01]
linear_acceleration: 
  x: 0.0209759864956
  y: 0.0150999780744
  z: -9.83267498016
linear_acceleration_covariance: [0.01, 0.0, 0.0, 0.0, 0.01, 0.0, 0.0, 0.0, 0.01]
---
header: 
  seq: 2822
  stamp: 
    secs: 1519256660
    nsecs: 234153032
  frame_id: "xsens_link"
orientation: 
  x: -0.000972615962382
  y: 0.00121612206567
  z: 0.00309260562062
  w: 0.999994039536
orientation_covariance: [0.01, 0.0, 0.0, 0.0, 0.01, 0.0, 0.0, 0.0, 0.01]
angular_velocity: 
  x: -0.0243920832872
  y: -0.0172104705125
  z: 0.00997241679579
angular_velocity_covariance: [0.01, 0.0, 0.0, 0.0, 0.01, 0.0, 0.0, 0.0, 0.01]
linear_acceleration: 
  x: 0.0331028290093
  y: 0.0203869082034
  z: -9.82142829895
linear_acceleration_covariance: [0.01, 0.0, 0.0, 0.0, 0.01, 0.0, 0.0, 0.0, 0.01]
---
header: 
  seq: 2823
  stamp: 
    secs: 1519256660
    nsecs: 254811048
  frame_id: "xsens_link"
orientation: 
  x: -0.000981488614343
  y: 0.00121346081141
  z: 0.00311674410477
  w: 0.999993979931
orientation_covariance: [0.01, 0.0, 0.0, 0.0, 0.01, 0.0, 0.0, 0.0, 0.01]
angular_velocity: 
  x: -0.0241920389235
  y: -0.0155478743836
  z: 0.00846553780138
angular_velocity_covariance: [0.01, 0.0, 0.0, 0.0, 0.01, 0.0, 0.0, 0.0, 0.01]
linear_acceleration: 
  x: 0.00600944133475
  y: 0.0249649304897
  z: -9.81869888306
linear_acceleration_covariance: [0.01, 0.0, 0.0, 0.0, 0.01, 0.0, 0.0, 0.0, 0.01]
---
header: 
  seq: 2824
  stamp: 
    secs: 1519256660
    nsecs: 272989988
  frame_id: "xsens_link"
orientation: 
  x: -0.000976476527285
  y: 0.00122129404917
  z: 0.00311324070208
  w: 0.999993979931
orientation_covariance: [0.01, 0.0, 0.0, 0.0, 0.01, 0.0, 0.0, 0.0, 0.01]
angular_velocity: 
  x: -0.0238146670163
  y: -0.0155802834779
  z: 0.0080378735438
angular_velocity_covariance: [0.01, 0.0, 0.0, 0.0, 0.01, 0.0, 0.0, 0.0, 0.01]
linear_acceleration: 
  x: 0.0199444722384
  y: 0.0223564561456
  z: -9.83798313141
linear_acceleration_covariance: [0.01, 0.0, 0.0, 0.0, 0.01, 0.0, 0.0, 0.0, 0.01]
---
header: 
  seq: 2825
  stamp: 
    secs: 1519256660
    nsecs: 293025016
  frame_id: "xsens_link"
orientation: 
  x: -0.000985935563222
  y: 0.00122093572281
  z: 0.00310994661413
  w: 0.999993979931
orientation_covariance: [0.01, 0.0, 0.0, 0.0, 0.01, 0.0, 0.0, 0.0, 0.01]
angular_velocity: 
  x: -0.0241827219725
  y: -0.0148221859708
  z: 0.00961218029261
angular_velocity_covariance: [0.01, 0.0, 0.0, 0.0, 0.01, 0.0, 0.0, 0.0, 0.01]
linear_acceleration: 
  x: 0.0309575051069
  y: 0.0269745253026
  z: -9.83648109436
linear_acceleration_covariance: [0.01, 0.0, 0.0, 0.0, 0.01, 0.0, 0.0, 0.0, 0.01]
---
header: 
  seq: 2826
  stamp: 
    secs: 1519256660
    nsecs: 317857027
  frame_id: "xsens_link"
orientation: 
  x: -0.000983328558505
  y: 0.0012271895539
  z: 0.00309166638181
  w: 0.99999409914
orientation_covariance: [0.01, 0.0, 0.0, 0.0, 0.01, 0.0, 0.0, 0.0, 0.01]
angular_velocity: 
  x: -0.0230431556702
  y: -0.0154938576743
  z: 0.00784751120955
angular_velocity_covariance: [0.01, 0.0, 0.0, 0.0, 0.01, 0.0, 0.0, 0.0, 0.01]
linear_acceleration: 
  x: 0.0281179267913
  y: 0.0214764475822
  z: -9.84299755096
linear_acceleration_covariance: [0.01, 0.0, 0.0, 0.0, 0.01, 0.0, 0.0, 0.0, 0.01]
---
header: 
  seq: 2827
  stamp: 
    secs: 1519256660
    nsecs: 334158897
  frame_id: "xsens_link"
orientation: 
  x: -0.000998477218673
  y: 0.00122930563521
  z: 0.00312586850487
  w: 0.999993920326
orientation_covariance: [0.01, 0.0, 0.0, 0.0, 0.01, 0.0, 0.0, 0.0, 0.01]
angular_velocity: 
  x: -0.0234410185367
  y: -0.0157184898853
  z: 0.00814069155604
angular_velocity_covariance: [0.01, 0.0, 0.0, 0.0, 0.01, 0.0, 0.0, 0.0, 0.01]
linear_acceleration: 
  x: 0.0140736419708
  y: 0.0432113111019
  z: -9.83681583405
linear_acceleration_covariance: [0.01, 0.0, 0.0, 0.0, 0.01, 0.0, 0.0, 0.0, 0.01]
---
header: 
  seq: 2828
  stamp: 
    secs: 1519256660
    nsecs: 353967905
  frame_id: "xsens_link"
orientation: 
  x: -0.000988678191788
  y: 0.00121676083654
  z: 0.00313892494887
  w: 0.999993860722
orientation_covariance: [0.01, 0.0, 0.0, 0.0, 0.01, 0.0, 0.0, 0.0, 0.01]
angular_velocity: 
  x: -0.0238683093339
  y: -0.018577652052
  z: 0.00857915729284
angular_velocity_covariance: [0.01, 0.0, 0.0, 0.0, 0.01, 0.0, 0.0, 0.0, 0.01]
linear_acceleration: 
  x: 0.0253830868751
  y: 0.0378173924983
  z: -9.81620121002
linear_acceleration_covariance: [0.01, 0.0, 0.0, 0.0, 0.01, 0.0, 0.0, 0.0, 0.01]
---
header: 
  seq: 2829
  stamp: 
    secs: 1519256660
    nsecs: 372067928
  frame_id: "xsens_link"
orientation: 
  x: -0.000985769438557
  y: 0.00121702242177
  z: 0.00315119908191
  w: 0.999993860722
orientation_covariance: [0.01, 0.0, 0.0, 0.0, 0.01, 0.0, 0.0, 0.0, 0.01]
angular_velocity: 
  x: -0.0231053698808
  y: -0.0154338795692
  z: 0.00891927722842
angular_velocity_covariance: [0.01, 0.0, 0.0, 0.0, 0.01, 0.0, 0.0, 0.0, 0.01]
linear_acceleration: 
  x: 0.0157106555998
  y: 0.0277512390167
  z: -9.83202171326
linear_acceleration_covariance: [0.01, 0.0, 0.0, 0.0, 0.01, 0.0, 0.0, 0.0, 0.01]
---
header: 
  seq: 2830
  stamp: 
    secs: 1519256660
    nsecs: 393032073
  frame_id: "xsens_link"
orientation: 
  x: -0.00101318117231
  y: 0.00121734035201
  z: 0.0031513760332
  w: 0.999993801117
orientation_covariance: [0.01, 0.0, 0.0, 0.0, 0.01, 0.0, 0.0, 0.0, 0.01]
angular_velocity: 
  x: -0.0243552047759
  y: -0.0155944377184
  z: 0.00852663069963
angular_velocity_covariance: [0.01, 0.0, 0.0, 0.0, 0.01, 0.0, 0.0, 0.0, 0.01]
linear_acceleration: 
  x: 0.0219633448869
  y: 0.0186570677906
  z: -9.80052280426
linear_acceleration_covariance: [0.01, 0.0, 0.0, 0.0, 0.01, 0.0, 0.0, 0.0, 0.01]
---
header: 
  seq: 2831
  stamp: 
    secs: 1519256660
    nsecs: 414555072
  frame_id: "xsens_link"
orientation: 
  x: -0.00101340271067
  y: 0.00122097367421
  z: 0.00312939961441
  w: 0.999993860722
orientation_covariance: [0.01, 0.0, 0.0, 0.0, 0.01, 0.0, 0.0, 0.0, 0.01]
angular_velocity: 
  x: -0.0238507986069
  y: -0.0168059039861
  z: 0.00803489238024
angular_velocity_covariance: [0.01, 0.0, 0.0, 0.0, 0.01, 0.0, 0.0, 0.0, 0.01]
linear_acceleration: 
  x: 0.0360282436013
  y: 0.0336794927716
  z: -9.82075786591
linear_acceleration_covariance: [0.01, 0.0, 0.0, 0.0, 0.01, 0.0, 0.0, 0.0, 0.01]
---
header: 
  seq: 2832
  stamp: 
    secs: 1519256660
    nsecs: 435833930
  frame_id: "xsens_link"
orientation: 
  x: -0.00099561503157
  y: 0.00121276453137
  z: 0.00314935157076
  w: 0.999993801117
orientation_covariance: [0.01, 0.0, 0.0, 0.0, 0.01, 0.0, 0.0, 0.0, 0.01]
angular_velocity: 
  x: -0.0236965734512
  y: -0.0157699007541
  z: 0.00833701342344
angular_velocity_covariance: [0.01, 0.0, 0.0, 0.0, 0.01, 0.0, 0.0, 0.0, 0.01]
linear_acceleration: 
  x: 0.019871911034
  y: 0.0316388010979
  z: -9.84495449066
linear_acceleration_covariance: [0.01, 0.0, 0.0, 0.0, 0.01, 0.0, 0.0, 0.0, 0.01]
---
header: 
  seq: 2833
  stamp: 
    secs: 1519256660
    nsecs: 456509113
  frame_id: "xsens_link"
orientation: 
  x: -0.00100562011357
  y: 0.00123306491878
  z: 0.00312694697641
  w: 0.999993920326
orientation_covariance: [0.01, 0.0, 0.0, 0.0, 0.01, 0.0, 0.0, 0.0, 0.01]
angular_velocity: 
  x: -0.0236622989178
  y: -0.0162914413959
  z: 0.00752080325037
angular_velocity_covariance: [0.01, 0.0, 0.0, 0.0, 0.01, 0.0, 0.0, 0.0, 0.01]
linear_acceleration: 
  x: 0.0208855271339
  y: 0.040535248816
  z: -9.82298278809
linear_acceleration_covariance: [0.01, 0.0, 0.0, 0.0, 0.01, 0.0, 0.0, 0.0, 0.01]
---
header: 
  seq: 2834
  stamp: 
    secs: 1519256660
    nsecs: 473079919
  frame_id: "xsens_link"
orientation: 
  x: -0.000997596071102
  y: 0.00122509605717
  z: 0.00313771143556
  w: 0.999993801117
orientation_covariance: [0.01, 0.0, 0.0, 0.0, 0.01, 0.0, 0.0, 0.0, 0.01]
angular_velocity: 
  x: -0.0226758420467
  y: -0.0161517430097
  z: 0.00809338036925
angular_velocity_covariance: [0.01, 0.0, 0.0, 0.0, 0.01, 0.0, 0.0, 0.0, 0.01]
linear_acceleration: 
  x: 0.0114729162306
  y: 0.0170219596475
  z: -9.83019924164
linear_acceleration_covariance: [0.01, 0.0, 0.0, 0.0, 0.01, 0.0, 0.0, 0.0, 0.01]
---
header: 
  seq: 2835
  stamp: 
    secs: 1519256660
    nsecs: 493199110
  frame_id: "xsens_link"
orientation: 
  x: -0.000993961119093
  y: 0.00123520335183
  z: 0.00315786711872
  w: 0.999993741512
orientation_covariance: [0.01, 0.0, 0.0, 0.0, 0.01, 0.0, 0.0, 0.0, 0.01]
angular_velocity: 
  x: -0.0226050615311
  y: -0.0161837805063
  z: 0.0079495832324
angular_velocity_covariance: [0.01, 0.0, 0.0, 0.0, 0.01, 0.0, 0.0, 0.0, 0.01]
linear_acceleration: 
  x: 0.0215361565351
  y: 0.0347079820931
  z: -9.84391784668
linear_acceleration_covariance: [0.01, 0.0, 0.0, 0.0, 0.01, 0.0, 0.0, 0.0, 0.01]
---
header: 
  seq: 2836
  stamp: 
    secs: 1519256660
    nsecs: 513160943
  frame_id: "xsens_link"
orientation: 
  x: -0.00099912728183
  y: 0.00124683440663
  z: 0.00316987163387
  w: 0.999993741512
orientation_covariance: [0.01, 0.0, 0.0, 0.0, 0.01, 0.0, 0.0, 0.0, 0.01]
angular_velocity: 
  x: -0.0240165702999
  y: -0.0152386724949
  z: 0.00857394281775
angular_velocity_covariance: [0.01, 0.0, 0.0, 0.0, 0.01, 0.0, 0.0, 0.0, 0.01]
linear_acceleration: 
  x: 0.0142299048603
  y: 0.0439032018185
  z: -9.82674217224
linear_acceleration_covariance: [0.01, 0.0, 0.0, 0.0, 0.01, 0.0, 0.0, 0.0, 0.01]
---
header: 
  seq: 2837
  stamp: 
    secs: 1519256660
    nsecs: 533353090
  frame_id: "xsens_link"
orientation: 
  x: -0.000997918425128
  y: 0.00124235067051
  z: 0.00313309719786
  w: 0.999993860722
orientation_covariance: [0.01, 0.0, 0.0, 0.0, 0.01, 0.0, 0.0, 0.0, 0.01]
angular_velocity: 
  x: -0.0241950172931
  y: -0.0168975442648
  z: 0.00826139282435
angular_velocity_covariance: [0.01, 0.0, 0.0, 0.0, 0.01, 0.0, 0.0, 0.0, 0.01]
linear_acceleration: 
  x: 0.0174303706735
  y: 0.0197120383382
  z: -9.83886528015
linear_acceleration_covariance: [0.01, 0.0, 0.0, 0.0, 0.01, 0.0, 0.0, 0.0, 0.01]
---
header: 
  seq: 2838
  stamp: 
    secs: 1519256660
    nsecs: 553385019
  frame_id: "xsens_link"
orientation: 
  x: -0.000997408758849
  y: 0.00122702971566
  z: 0.00311971502379
  w: 0.999993920326
orientation_covariance: [0.01, 0.0, 0.0, 0.0, 0.01, 0.0, 0.0, 0.0, 0.01]
angular_velocity: 
  x: -0.0237487256527
  y: -0.0171300005168
  z: 0.00723097519949
angular_velocity_covariance: [0.01, 0.0, 0.0, 0.0, 0.01, 0.0, 0.0, 0.0, 0.01]
linear_acceleration: 
  x: 0.0403786674142
  y: 0.0278277210891
  z: -9.84388160706
linear_acceleration_covariance: [0.01, 0.0, 0.0, 0.0, 0.01, 0.0, 0.0, 0.0, 0.01]
---
header: 
  seq: 2839
  stamp: 
    secs: 1519256660
    nsecs: 578001022
  frame_id: "xsens_link"
orientation: 
  x: -0.00101775920484
  y: 0.00124815083109
  z: 0.00310925208032
  w: 0.999993979931
orientation_covariance: [0.01, 0.0, 0.0, 0.0, 0.01, 0.0, 0.0, 0.0, 0.01]
angular_velocity: 
  x: -0.0239852834493
  y: -0.0160805881023
  z: 0.0091599309817
angular_velocity_covariance: [0.01, 0.0, 0.0, 0.0, 0.01, 0.0, 0.0, 0.0, 0.01]
linear_acceleration: 
  x: 0.0216854326427
  y: 0.0179409272969
  z: -9.82423973083
linear_acceleration_covariance: [0.01, 0.0, 0.0, 0.0, 0.01, 0.0, 0.0, 0.0, 0.01]
---
header: 
  seq: 2840
  stamp: 
    secs: 1519256660
    nsecs: 593080997
  frame_id: "xsens_link"
orientation: 
  x: -0.00100859045051
  y: 0.00125187507365
  z: 0.00311995507218
  w: 0.999993860722
orientation_covariance: [0.01, 0.0, 0.0, 0.0, 0.01, 0.0, 0.0, 0.0, 0.01]
angular_velocity: 
  x: -0.0219550002366
  y: -0.0166639704257
  z: 0.00900868326426
angular_velocity_covariance: [0.01, 0.0, 0.0, 0.0, 0.01, 0.0, 0.0, 0.0, 0.01]
linear_acceleration: 
  x: 0.0085051227361
  y: 0.0355699434876
  z: -9.82199287415
linear_acceleration_covariance: [0.01, 0.0, 0.0, 0.0, 0.01, 0.0, 0.0, 0.0, 0.01]
---
header: 
  seq: 2841
  stamp: 
    secs: 1519256660
    nsecs: 613737106
  frame_id: "xsens_link"
orientation: 
  x: -0.00101363519207
  y: 0.00124331761617
  z: 0.00308449100703
  w: 0.999993979931
orientation_covariance: [0.01, 0.0, 0.0, 0.0, 0.01, 0.0, 0.0, 0.0, 0.01]
angular_velocity: 
  x: -0.0232998300344
  y: -0.0171199440956
  z: 0.00828448776156
angular_velocity_covariance: [0.01, 0.0, 0.0, 0.0, 0.01, 0.0, 0.0, 0.0, 0.01]
linear_acceleration: 
  x: 0.0239609833807
  y: 0.0343686267734
  z: -9.83466243744
linear_acceleration_covariance: [0.01, 0.0, 0.0, 0.0, 0.01, 0.0, 0.0, 0.0, 0.01]
---
header: 
  seq: 2842
  stamp: 
    secs: 1519256660
    nsecs: 634237051
  frame_id: "xsens_link"
orientation: 
  x: -0.000989776686765
  y: 0.00122492085211
  z: 0.00307014305145
  w: 0.999994039536
orientation_covariance: [0.01, 0.0, 0.0, 0.0, 0.01, 0.0, 0.0, 0.0, 0.01]
angular_velocity: 
  x: -0.0234935414046
  y: -0.0182777643204
  z: 0.00856350921094
angular_velocity_covariance: [0.01, 0.0, 0.0, 0.0, 0.01, 0.0, 0.0, 0.0, 0.01]
linear_acceleration: 
  x: 0.0346812941134
  y: 0.0330284684896
  z: -9.81258010864
linear_acceleration_covariance: [0.01, 0.0, 0.0, 0.0, 0.01, 0.0, 0.0, 0.0, 0.01]
---
header: 
  seq: 2843
  stamp: 
    secs: 1519256660
    nsecs: 654737949
  frame_id: "xsens_link"
orientation: 
  x: -0.00100926868618
  y: 0.00121769530233
  z: 0.00307713053189
  w: 0.99999409914
orientation_covariance: [0.01, 0.0, 0.0, 0.0, 0.01, 0.0, 0.0, 0.0, 0.01]
angular_velocity: 
  x: -0.0241305679083
  y: -0.0166896749288
  z: 0.00928360968828
angular_velocity_covariance: [0.01, 0.0, 0.0, 0.0, 0.01, 0.0, 0.0, 0.0, 0.01]
linear_acceleration: 
  x: 0.0209641344845
  y: 0.0220120176673
  z: -9.79001426697
linear_acceleration_covariance: [0.01, 0.0, 0.0, 0.0, 0.01, 0.0, 0.0, 0.0, 0.01]
---
header: 
  seq: 2844
  stamp: 
    secs: 1519256660
    nsecs: 673085927
  frame_id: "xsens_link"
orientation: 
  x: -0.00102156959474
  y: 0.00122275203466
  z: 0.00307494821027
  w: 0.99999409914
orientation_covariance: [0.01, 0.0, 0.0, 0.0, 0.01, 0.0, 0.0, 0.0, 0.01]
angular_velocity: 
  x: -0.0244218874723
  y: -0.0168964248151
  z: 0.00801403075457
angular_velocity_covariance: [0.01, 0.0, 0.0, 0.0, 0.01, 0.0, 0.0, 0.0, 0.01]
linear_acceleration: 
  x: 0.0273702815175
  y: 0.0382018089294
  z: -9.82543373108
linear_acceleration_covariance: [0.01, 0.0, 0.0, 0.0, 0.01, 0.0, 0.0, 0.0, 0.01]
---
header: 
  seq: 2845
  stamp: 
    secs: 1519256660
    nsecs: 693118095
  frame_id: "xsens_link"
orientation: 
  x: -0.00100389984436
  y: 0.00121163623407
  z: 0.00305104791187
  w: 0.999994158745
orientation_covariance: [0.01, 0.0, 0.0, 0.0, 0.01, 0.0, 0.0, 0.0, 0.01]
angular_velocity: 
  x: -0.0217113606632
  y: -0.0159148145467
  z: 0.00736583024263
angular_velocity_covariance: [0.01, 0.0, 0.0, 0.0, 0.01, 0.0, 0.0, 0.0, 0.01]
linear_acceleration: 
  x: 0.00862198602408
  y: 0.0274503082037
  z: -9.8423500061
linear_acceleration_covariance: [0.01, 0.0, 0.0, 0.0, 0.01, 0.0, 0.0, 0.0, 0.01]
---
header: 
  seq: 2846
  stamp: 
    secs: 1519256660
    nsecs: 718200922
  frame_id: "xsens_link"
orientation: 
  x: -0.00101416592952
  y: 0.00120963808149
  z: 0.00304279429838
  w: 0.999994218349
orientation_covariance: [0.01, 0.0, 0.0, 0.0, 0.01, 0.0, 0.0, 0.0, 0.01]
angular_velocity: 
  x: -0.0238329228014
  y: -0.0164408236742
  z: 0.00888202339411
angular_velocity_covariance: [0.01, 0.0, 0.0, 0.0, 0.01, 0.0, 0.0, 0.0, 0.01]
linear_acceleration: 
  x: 0.0333508886397
  y: 0.0343653410673
  z: -9.83009719849
linear_acceleration_covariance: [0.01, 0.0, 0.0, 0.0, 0.01, 0.0, 0.0, 0.0, 0.01]
---
header: 
  seq: 2847
  stamp: 
    secs: 1519256660
    nsecs: 733139038
  frame_id: "xsens_link"
orientation: 
  x: -0.00100549589843
  y: 0.00121049932204
  z: 0.00305106234737
  w: 0.999994158745
orientation_covariance: [0.01, 0.0, 0.0, 0.0, 0.01, 0.0, 0.0, 0.0, 0.01]
angular_velocity: 
  x: -0.0232893973589
  y: -0.0150829581544
  z: 0.00707898288965
angular_velocity_covariance: [0.01, 0.0, 0.0, 0.0, 0.01, 0.0, 0.0, 0.0, 0.01]
linear_acceleration: 
  x: 0.0139239327982
  y: 0.00767319649458
  z: -9.84110927582
linear_acceleration_covariance: [0.01, 0.0, 0.0, 0.0, 0.01, 0.0, 0.0, 0.0, 0.01]
---
header: 
  seq: 2848
  stamp: 
    secs: 1519256660
    nsecs: 764126062
  frame_id: "xsens_link"
orientation: 
  x: -0.000996645423584
  y: 0.00121474766638
  z: 0.00307734520175
  w: 0.999994039536
orientation_covariance: [0.01, 0.0, 0.0, 0.0, 0.01, 0.0, 0.0, 0.0, 0.01]
angular_velocity: 
  x: -0.0222913939506
  y: -0.0160992164165
  z: 0.00727307144552
angular_velocity_covariance: [0.01, 0.0, 0.0, 0.0, 0.01, 0.0, 0.0, 0.0, 0.01]
linear_acceleration: 
  x: 0.0256738513708
  y: 0.00613080104813
  z: -9.83724880219
linear_acceleration_covariance: [0.01, 0.0, 0.0, 0.0, 0.01, 0.0, 0.0, 0.0, 0.01]
---
header: 
  seq: 2849
  stamp: 
    secs: 1519256660
    nsecs: 773145914
  frame_id: "xsens_link"
orientation: 
  x: -0.000996982562356
  y: 0.00121725955978
  z: 0.00309853954241
  w: 0.999993920326
orientation_covariance: [0.01, 0.0, 0.0, 0.0, 0.01, 0.0, 0.0, 0.0, 0.01]
angular_velocity: 
  x: -0.0227108597755
  y: -0.0161543507129
  z: 0.00727381557226
angular_velocity_covariance: [0.01, 0.0, 0.0, 0.0, 0.01, 0.0, 0.0, 0.0, 0.01]
linear_acceleration: 
  x: 0.0152324968949
  y: 0.0381647273898
  z: -9.84643745422
linear_acceleration_covariance: [0.01, 0.0, 0.0, 0.0, 0.01, 0.0, 0.0, 0.0, 0.01]
---
header: 
  seq: 2850
  stamp: 
    secs: 1519256660
    nsecs: 796243906
  frame_id: "xsens_link"
orientation: 
  x: -0.000986200408079
  y: 0.00119971251115
  z: 0.00314673967659
  w: 0.999993920326
orientation_covariance: [0.01, 0.0, 0.0, 0.0, 0.01, 0.0, 0.0, 0.0, 0.01]
angular_velocity: 
  x: -0.0223401933908
  y: -0.015905501321
  z: 0.00844914559275
angular_velocity_covariance: [0.01, 0.0, 0.0, 0.0, 0.01, 0.0, 0.0, 0.0, 0.01]
linear_acceleration: 
  x: 0.0257971286774
  y: 0.0187510997057
  z: -9.82612419128
linear_acceleration_covariance: [0.01, 0.0, 0.0, 0.0, 0.01, 0.0, 0.0, 0.0, 0.01]
---
header: 
  seq: 2851
  stamp: 
    secs: 1519256660
    nsecs: 812191963
  frame_id: "xsens_link"
orientation: 
  x: -0.000992267159745
  y: 0.00121577666141
  z: 0.00316143338569
  w: 0.999993741512
orientation_covariance: [0.01, 0.0, 0.0, 0.0, 0.01, 0.0, 0.0, 0.0, 0.01]
angular_velocity: 
  x: -0.0235043466091
  y: -0.0166505593807
  z: 0.00843610614538
angular_velocity_covariance: [0.01, 0.0, 0.0, 0.0, 0.01, 0.0, 0.0, 0.0, 0.01]
linear_acceleration: 
  x: 0.0148740448058
  y: 0.00807331409305
  z: -9.83166885376
linear_acceleration_covariance: [0.01, 0.0, 0.0, 0.0, 0.01, 0.0, 0.0, 0.0, 0.01]
---
header: 
  seq: 2852
  stamp: 
    secs: 1519256660
    nsecs: 836725950
  frame_id: "xsens_link"
orientation: 
  x: -0.000967070809565
  y: 0.00120480521582
  z: 0.00316267553717
  w: 0.999993860722
orientation_covariance: [0.01, 0.0, 0.0, 0.0, 0.01, 0.0, 0.0, 0.0, 0.01]
angular_velocity: 
  x: -0.0228602439165
  y: -0.0160172581673
  z: 0.00904183927923
angular_velocity_covariance: [0.01, 0.0, 0.0, 0.0, 0.01, 0.0, 0.0, 0.0, 0.01]
linear_acceleration: 
  x: 0.0254346057773
  y: 0.0259257238358
  z: -9.83003807068
linear_acceleration_covariance: [0.01, 0.0, 0.0, 0.0, 0.01, 0.0, 0.0, 0.0, 0.01]
---
header: 
  seq: 2853
  stamp: 
    secs: 1519256660
    nsecs: 856383085
  frame_id: "xsens_link"
orientation: 
  x: -0.000977798597887
  y: 0.0012149628019
  z: 0.00317768915556
  w: 0.999993741512
orientation_covariance: [0.01, 0.0, 0.0, 0.0, 0.01, 0.0, 0.0, 0.0, 0.01]
angular_velocity: 
  x: -0.0249411966652
  y: -0.0169966369867
  z: 0.00860747229308
angular_velocity_covariance: [0.01, 0.0, 0.0, 0.0, 0.01, 0.0, 0.0, 0.0, 0.01]
linear_acceleration: 
  x: 0.0291716679931
  y: 0.024119887501
  z: -9.82398414612
linear_acceleration_covariance: [0.01, 0.0, 0.0, 0.0, 0.01, 0.0, 0.0, 0.0, 0.01]
---
header: 
  seq: 2854
  stamp: 
    secs: 1519256660
    nsecs: 879667043
  frame_id: "xsens_link"
orientation: 
  x: -0.000970468914602
  y: 0.00119637837633
  z: 0.00321468221955
  w: 0.999993622303
orientation_covariance: [0.01, 0.0, 0.0, 0.0, 0.01, 0.0, 0.0, 0.0, 0.01]
angular_velocity: 
  x: -0.0228982437402
  y: -0.0188302248716
  z: 0.00711362808943
angular_velocity_covariance: [0.01, 0.0, 0.0, 0.0, 0.01, 0.0, 0.0, 0.0, 0.01]
linear_acceleration: 
  x: 0.0125189442188
  y: 0.0339514091611
  z: -9.84624767303
linear_acceleration_covariance: [0.01, 0.0, 0.0, 0.0, 0.01, 0.0, 0.0, 0.0, 0.01]
---
header: 
  seq: 2855
  stamp: 
    secs: 1519256660
    nsecs: 894294023
  frame_id: "xsens_link"
orientation: 
  x: -0.00095962814521
  y: 0.00118974491488
  z: 0.00324199651368
  w: 0.999993622303
orientation_covariance: [0.01, 0.0, 0.0, 0.0, 0.01, 0.0, 0.0, 0.0, 0.01]
angular_velocity: 
  x: -0.0230804067105
  y: -0.0175077430904
  z: 0.00756178004667
angular_velocity_covariance: [0.01, 0.0, 0.0, 0.0, 0.01, 0.0, 0.0, 0.0, 0.01]
linear_acceleration: 
  x: 0.0206860024482
  y: 0.0336679965258
  z: -9.8347454071
linear_acceleration_covariance: [0.01, 0.0, 0.0, 0.0, 0.01, 0.0, 0.0, 0.0, 0.01]
---
header: 
  seq: 2856
  stamp: 
    secs: 1519256660
    nsecs: 912245988
  frame_id: "xsens_link"
orientation: 
  x: -0.00097253639251
  y: 0.00119008135516
  z: 0.00325229926966
  w: 0.999993503094
orientation_covariance: [0.01, 0.0, 0.0, 0.0, 0.01, 0.0, 0.0, 0.0, 0.01]
angular_velocity: 
  x: -0.0246670115739
  y: -0.0170711446553
  z: 0.0076225027442
angular_velocity_covariance: [0.01, 0.0, 0.0, 0.0, 0.01, 0.0, 0.0, 0.0, 0.01]
linear_acceleration: 
  x: 0.0270429234952
  y: 0.041516713798
  z: -9.82748985291
linear_acceleration_covariance: [0.01, 0.0, 0.0, 0.0, 0.01, 0.0, 0.0, 0.0, 0.01]
---
header: 
  seq: 2857
  stamp: 
    secs: 1519256660
    nsecs: 932210922
  frame_id: "xsens_link"
orientation: 
  x: -0.000969804241322
  y: 0.00121512915939
  z: 0.00327927153558
  w: 0.999993503094
